Name,Type,Latitude,Longitude,City,Country
variety silks,clothing store,55.842698,-4.282664,glasgow,united kingdom
dave  louises funk parlour,home private,55.845159328887426,-4.2711876793321,,united kingdom
pollokshields church of scotland,,55.843306,-4.276164,,united kingdom
ocean hair and beauty,salon  barbershop,55.842650434145014,-4.274868413953944,,united kingdom
herriet street,home private,55.845159328887426,-4.2711876793321,,united kingdom
jew den.,home private,55.845159328887426,-4.2711876793321,glasgow,united kingdom
byker grove 2,,55.842903,-4.274091,,united kingdom
big bobs,home private,55.845159328887426,-4.2711876793321,glasgow,united kingdom
phils place,home private,55.845159328887426,-4.2711876793321,glasgow,united kingdom
maxwell rd,road,55.84337382764472,-4.266729354858398,glasgow,united kingdom
will n james,home private,55.845159328887426,-4.2711876793321,glasgow,united kingdom
barrland street,building,55.84277753736295,-4.264167052930758,glasgow,united kingdom
psychos house,home private,55.845159328887426,-4.2711876793321,glasgow,united kingdom
naim penthouse,home private,55.845159328887426,-4.2711876793321,glasgow,united kingdom
skynet central,home private,55.845159328887426,-4.2711876793321,glasgow,united kingdom
eglinton toll,road,55.843006375253815,-4.26243782043457,glasgow,united kingdom
superasia,food  drink shop,55.842554584766866,-4.263253211975098,glasgow,united kingdom
davincis,caf,55.84296482922789,-4.2626640244744936,glasgow,united kingdom
dollar east,general travel,55.84257582552426,-4.262738812954682,glasgow,united kingdom
home,home private,55.845668788985996,-4.256479651168762,glasgow,united kingdom
the new plaza,home private,55.845668788985996,-4.256479651168762,,united kingdom
the star bar,pub,55.84340997031523,-4.262030124664307,glasgow,united kingdom
66 bus southbound,bus line,55.84340532169857,-4.2617309898621745,,united kingdom
eat cafe,caf,55.843034,-4.262098,glasgow,united kingdom
bus stop 60902523,bus station,55.84328949461619,-4.261896014213562,pollokshields,united kingdom
cosmo ceramics,shop  service,55.842902,-4.250329,glasgow,united kingdom
bagel mania,bagel shop,55.84312,-4.249324,,united kingdom
nanas ,home private,55.84617638569836,-4.241774407702005,glasgow,united kingdom
careshare nursery,daycare,55.843833,-4.283886,,united kingdom
pedros leal house,home private,55.844648004373624,-4.28589848990163,glasgow,united kingdom
cafe serena,asian restaurant,55.84429822002043,-4.274122366090636,glasgow,united kingdom
amore restaurant,italian restaurant,55.84349514991116,-4.274679310216956,armadale,united kingdom
youdaf  co accountants,building,55.84416003802491,-4.273399560428968,,united kingdom
7e9as house ,home private,55.845159328887426,-4.2711876793321,,united kingdom
nationwide crash repair centre,automotive shop,55.84385,-4.270165,,united kingdom
allsops,home private,55.845159328887426,-4.2711876793321,,united kingdom
united cash and carry,miscellaneous shop,55.843685664775904,-4.268405096210752,,united kingdom
shields road dental practice,dentists office,55.843729613516814,-4.264207937351043,glasgow,united kingdom
bus stop 60902627,bus station,55.84357863566664,-4.262351989746094,pollokshields,united kingdom
the saw centre,hardware store,55.843848,-4.262421,,united kingdom
shell,gas station  garage,55.844168958633766,-4.262180328369141,eglinton toll,united kingdom
starbar,bar,55.843493244167036,-4.262129044434537,,united kingdom
eglinton st bus stop,bus station,55.84366296806793,-4.2621588706970215,glasgow,united kingdom
djs,other nightlife,55.84372628087203,-4.262049642861092,,united kingdom
cathcart circle train,train,55.84273922145295,-4.261114794329138,,united kingdom
mellys magnificent majestry,housing development,55.843676631122754,-4.23003989815662,,united kingdom
lyle hill,scenic lookout,55.84389436043026,-4.23003989815662,greenok,united kingdom
tam o shanters,other great outdoors,55.844035,-4.230057,,united kingdom
beswicks apple,arepa restaurant,55.844016,-4.230105,,united kingdom
baguete express,,55.843822,-4.230169,paisley,united kingdom
the scottsman pub,pub,55.843822,-4.230169,glasgow,united kingdom
antartex village,,55.843867,-4.229872,alexandria,united kingdom
bailikins,,55.844853,-4.276756,glasgow,united kingdom
glendale primary,school,55.844912505819316,-4.273202790022677,glasgow,united kingdom
block g james blyth court,residential building apartment  condo,55.844525,-4.272875,,united kingdom
pollockshields,neighborhood,55.84493202563215,-4.271827040169284,,united kingdom
multicultural centre,convention center,55.84486825206811,-4.271749333026335,glasgow,united kingdom
kingston bowling club,bowling alley,55.844588,-4.271081,glasgow,united kingdom
sugar rush,hookah bar,55.844472637957395,-4.268653747840145,,united kingdom
red pepper,indian restaurant,55.844346,-4.268664,glasgow,united kingdom
splash,car wash,55.84498816749105,-4.268553256988525,glasgow,united kingdom
splash car wash,,55.84463674,-4.268786,glasgow,united kingdom
sugar rush,dessert shop,55.844489,-4.268755,,united kingdom
aqua star,car wash,55.84434509277344,-4.262527942657471,,united kingdom
best fit tyres,automotive shop,55.84524639,-4.26176387,glasgow,united kingdom
cat factory,residential building apartment  condo,55.844567,-4.262148,,united kingdom
shirt express,laundry service,55.84495333255463,-4.261469878509547,glasgow,united kingdom
eglinton medical centre,doctors office,55.84452688622438,-4.262033642181012,glasgow,united kingdom
kashmir continental store,food,55.844481,-4.262054,glasgow,united kingdom
kashmir continental store,shop  service,55.84443,-4.261961,glasgow,united kingdom
soapbox digital media,design studio,55.844443,-4.262095,glasgow,united kingdom
hiltongrosvenor suite,other nightlife,55.844651218863625,-4.255136107874676,,united kingdom
teamtrackr hq,tech startup,55.845244,-4.251132,glasgow,united kingdom
caledonia house,office,55.84518242348988,-4.251040289287686,glasgow,united kingdom
caledonia house cafe,caf,55.84521857628506,-4.250842560634752,,united kingdom
entrepreneurial spark,office,55.845205014004705,-4.249069690704346,glasgow,united kingdom
gorbals,other great outdoors,55.84467494261356,-4.2455291748046875,,united kingdom
dunkys place,home private,55.84617638569836,-4.241774407702005,glasgow,united kingdom
st alberts primary,college academic building,55.845891,-4.28239,,united kingdom
maxwell lane,residential building apartment  condo,55.84548354027686,-4.280937132433053,glasgow,united kingdom
st.andrews cresent,residential building apartment  condo,55.845453,-4.280312,glasgow,united kingdom
manhattan,american restaurant,55.84565802750851,-4.275243982351857,,united kingdom
mlaga tapas,spanish restaurant,55.845917353470846,-4.274202257232608,glasgow,united kingdom
malaga,,55.84595898174258,-4.274291716841139,glasgow,united kingdom
khyber afganistani restaurant,asian restaurant,55.845963,-4.274469,glasgow,united kingdom
mimmos,italian restaurant,55.845969432240075,-4.274853939496632,glasgow,united kingdom
st andrews rd,road,55.84591553296543,-4.274885721775191,,united kingdom
carpet right,furniture  home store,55.845492140339154,-4.271085896431998,glasgow,united kingdom
kilbirnie st rrap,light rail,55.84602865710425,-4.2678570536297515,,united kingdom
sher brothers cash  carry,food  drink shop,55.84554,-4.264171,,united kingdom
seventh-day adventist church turriff str. glasgow,church,55.845359802246094,-4.260986804962158,glasgow,united kingdom
jobcentre plus,government building,55.8460998224853,-4.259202430621493,glasgow,united kingdom
laurieston jc+,government building,55.84553778972071,-4.2587197853323335,glasgow,united kingdom
invensys rail,office,55.84548425473833,-4.2576451275973435,,united kingdom
23 bus,moving target,55.84604,-4.25678,,united kingdom
james f kidd,building,55.84576964378357,-4.257105588912964,glasgow,united kingdom
nicola and gavs pad,home private,55.845668788985996,-4.256479651168762,,united kingdom
scots house,home private,55.845668788985996,-4.256479651168762,,united kingdom
the pit stop,,55.845586,-4.2515378749999995,glasgow,united kingdom
home ryan m,home private,55.845668788985996,-4.256479651168762,glasgow,united kingdom
ee,mobile phone shop,55.846005,-4.242789,,united kingdom
glasgow national hockey centre,hockey field,55.845248542733366,-4.236714057755566,,united kingdom
glasgow green football centre,soccer field,55.845981,-4.234161,glasgow,united kingdom
social climbers ltd,tech startup,55.845976014034214,-4.2304229736328125,glasgow,united kingdom
shields train depot,train,55.8466762304306,-4.285714030265808,glasgow,united kingdom
alstom,residential building apartment  condo,55.84677876,-4.28434237,glasgow,united kingdom
st andrews drive park,playground,55.84696670923032,-4.280616373749335,glasgow,united kingdom
27 st. andrews cres,residential building apartment  condo,55.846454,-4.278062,,united kingdom
diarmids flat,home private,55.845159328887426,-4.2711876793321,,united kingdom
arnold clark van centre,automotive shop,55.846876,-4.268545,,united kingdom
scotland gas networks,office,55.846829360845895,-4.265352360239334,glasgow,united kingdom
t.smith snack bar,food truck,55.84703,-4.265391,glasgow,united kingdom
griphouse southside,martial arts dojo,55.84670150833557,-4.261003146521926,shawlands,united kingdom
aynams grill station,indian restaurant,55.84655246,-4.259459,glasgow,united kingdom
melbras place,home private,55.845668788985996,-4.256479651168762,,united kingdom
ross electrical,miscellaneous shop,55.84638549190216,-4.256344435785069,glasgow,united kingdom
new turban tandoori,indian restaurant,55.84665671619283,-4.2550601455763,giffnock,united kingdom
johnnys pad,home private,55.845668788985996,-4.256479651168762,,united kingdom
new gorbals park southside,park,55.84638602994538,-4.253042420339185,glasgow,united kingdom
dickie heights,home private,55.845668788985996,-4.256479651168762,glasgow,united kingdom
my house,home private,55.845668788985996,-4.256479651168762,,united kingdom
waterside team,home private,55.845668788985996,-4.256479651168762,glasgow,united kingdom
new gorbals,other great outdoors,55.846939742566256,-4.248189926147461,glasgow,united kingdom
home sweet home,home private,55.84617638569836,-4.241774407702005,,united kingdom
tbones crib.,home private,55.84617638569836,-4.241774407702005,,united kingdom
msc on tour glasgow mansion,home private,55.84617638569836,-4.241774407702005,glasgow,united kingdom
st francis centre,convention center,55.846495,-4.245566,,united kingdom
provan towers,home private,55.84617638569836,-4.241774407702005,,united kingdom
greggs,bakery,55.84663200801935,-4.245056180472904,,united kingdom
flat 31 16 st. valentines terrace,home private,55.84617638569836,-4.241774407702005,glasgow,united kingdom
francis rc primary school,school,55.846658,-4.243925,glasgow,united kingdom
mortgage advisor glasgow,real estate office,55.846879510233016,-4.242353439331055,glasgow,united kingdom
bonnie prince charlies gate,historic site,55.8470240404717,-4.236361926183662,glasgow,united kingdom
city of glasgow college hall of residence,college residence hall,55.84668,-4.236623,glasgow,united kingdom
lynseys house,home private,55.84617638569836,-4.241774407702005,glasgow,united kingdom
dassie green on glasgow green,park,55.84669595733141,-4.231175873079296,glasgow,united kingdom
mr snugglies,home private,55.84668212005396,-4.227071951219966,glasgow,united kingdom
trespass,sporting goods shop,55.84796015834075,-4.2857971708036535,glasgow,united kingdom
sher bros,miscellaneous shop,55.84750592193636,-4.264669418334961,glasgow,united kingdom
anaya glasgow,hookah bar,55.847104,-4.264461,glasgow,united kingdom
mammys,home private,55.845668788985996,-4.256479651168762,glasgow,united kingdom
pole position,dance studio,55.847683,-4.25823,glasgow,united kingdom
soap kitchen,arts  crafts store,55.84714638968076,-4.256755792651837,glasgow,united kingdom
gorbals sounds,theater,55.847184878081336,-4.255368580132447,,united kingdom
whiteinch centre,building,55.847713,-4.255603,,united kingdom
19 malta terrace,home private,55.845668788985996,-4.256479651168762,glasgow,united kingdom
home sweet home,assisted living,55.847783,-4.252826,glasgow,united kingdom
cumberland street,road,55.847530014492584,-4.251290559768677,glasgow,united kingdom
home,home private,55.845668788985996,-4.256479651168762,,united kingdom
abode of the bearded,home private,55.84617638569836,-4.241774407702005,glasgow,united kingdom
gorbals rose garden,garden,55.84725294919447,-4.24497127532959,glasgow,united kingdom
grazias place,home private,55.84617638569836,-4.241774407702005,glasgow,united kingdom
reubanz,,55.847841,-4.245825,,united kingdom
tonys southside palace,home private,55.84617638569836,-4.241774407702005,,united kingdom
the gorbals barbershop,salon  barbershop,55.847879354879545,-4.2417097091674805,glasgow,united kingdom
claire  brians,home private,55.84617638569836,-4.241774407702005,,united kingdom
head office,,55.847958,-4.240036,,united kingdom
hot spot,fast food restaurant,55.84730423333334,-4.23880266,glasgow,united kingdom
kings bridge,road,55.847142266570614,-4.238051438949538,,united kingdom
new gaff.,home private,55.84668212005396,-4.227071951219966,glasgow,united kingdom
crimson star,bar,55.847711,-4.231013,,united kingdom
james street,road,55.8475243984377,-4.231842874593934,,united kingdom
pts,hardware store,55.84800632,-4.28195215,,united kingdom
bss,office,55.848234,-4.281875,kinning park,united kingdom
smurfit kappa,,55.84855798312984,-4.279515424275138,glasgow,united kingdom
ftdi chip,building,55.848446193023086,-4.277463544526991,,united kingdom
foster wheeler,office,55.84877333671589,-4.277463928042254,glasgow,united kingdom
key portfolio,office,55.848192553936435,-4.276599884033203,glasgow,united kingdom
baxter house,office,55.848092,-4.276254,,united kingdom
hyundai,car dealership,55.84815216064453,-4.275623321533203,glasgow,united kingdom
murray chrysler,automotive shop,55.848216819847636,-4.275850774319501,,united kingdom
june brides,bridal shop,55.84837792456908,-4.260687024670452,,united kingdom
commonwealth house,event space,55.84842011952737,-4.26104044610468,glasgow,united kingdom
g5 9de,home private,55.845668788985996,-4.256479651168762,glasgow,united kingdom
hannah autosound,automotive shop,55.848365836557406,-4.258011482736837,glasgow,united kingdom
brazen heid,bar,55.847983,-4.254533,,united kingdom
sizzlers,indian restaurant,55.848394396939575,-4.254294120531323,,united kingdom
mommas house,home private,55.845668788985996,-4.256479651168762,,united kingdom
the co-operative food,grocery store,55.848794852721646,-4.251279830932617,glasgow,united kingdom
boots,drugstore  pharmacy,55.84826483028346,-4.251236915588379,glasgow,united kingdom
anns fry,fast food restaurant,55.84858555327928,-4.25069728325563,glasgow,united kingdom
laurens place,home private,55.845668788985996,-4.256479651168762,glasgow,united kingdom
the flat,home private,55.845668788985996,-4.256479651168762,glasgow,united kingdom
gs fish and chips,fish  chips shop,55.84884262084961,-4.250625133514404,glasgow,united kingdom
gorbals health centre,doctors office,55.84851943008622,-4.248564679143446,gorbals,united kingdom
g5 deli,caf,55.84878391713706,-4.248309818831874,,united kingdom
gorbals social work,conference room,55.84881663322449,-4.247374534606934,glasgow,united kingdom
southbank child development centre,,55.848564634407744,-4.246462439234141,glasgow,united kingdom
kristuc humpy,residential building apartment  condo,55.848417,-4.246736,glasgow,united kingdom
new gorbals residence,home private,55.84617638569836,-4.241774407702005,glasgow,united kingdom
nisa extra,food  drink shop,55.848361952662536,-4.242711745735155,,united kingdom
bells taxi insurance,office,55.84810823136168,-4.2418599128723145,glasgow,united kingdom
st andrews suspension bridge,bridge,55.848794852721646,-4.238491058349609,glasgow,united kingdom
university of glasgow boat house,college  university,55.848250184191684,-4.237224665511795,glasgow city,united kingdom
joannes apartment,home private,55.84617638569836,-4.241774407702005,glasgow,united kingdom
embody integrated health clinic,spa  massage,55.848760388019265,-4.232560103442259,glasgow,united kingdom
my house,home private,55.84668212005396,-4.227071951219966,glasgow,united kingdom
mcphail st 36,home private,55.84668212005396,-4.227071951219966,,united kingdom
poppyscotland,non-profit,55.849216,-4.285915,kinning park,united kingdom
m80 junction 22,road,55.84950756473932,-4.283499775481814,,united kingdom
headhunter studios,music venue,55.84976849203671,-4.281005904235021,glasgow,united kingdom
grahams,office,55.84899,-4.277976,,united kingdom
wsp glasgow office,office,55.849342346191406,-4.276871204376221,,united kingdom
arnold clark - hyundaichryslerjeep,automotive shop,55.849007559231005,-4.275963586152513,glasgow,united kingdom
capi leroy  mchamsters drinking den,,55.849721,-4.275074,glasgow,united kingdom
scotland street school museum,museum,55.84967419218725,-4.273788928985596,glasgow,united kingdom
richmonds plumbing  heating merchants,furniture  home store,55.8497248486555,-4.271917741555691,,united kingdom
j. thomson colour print,paper  office supplies store,55.84942710782283,-4.270142250873891,glasgow,united kingdom
bubbles,car wash,55.849611,-4.268754,,united kingdom
west street subway station,subway,55.84958987282691,-4.2658281326293945,glasgow,united kingdom
duncan yacht chandlers,hardware store,55.84967400711022,-4.266795783109067,glasgow,united kingdom
first bus - 38,bus line,55.84966354220953,-4.261107564890026,glasgow,united kingdom
the unit,historic site,55.849205330829726,-4.260841378434462,glasgow,united kingdom
the barn,event space,55.848873,-4.257701,,united kingdom
gorbals mot,automotive shop,55.84905270155995,-4.253450778722875,,united kingdom
bus stop 60902508,bus line,55.84969711303711,-4.25402307510376,,united kingdom
number 20 bus,bus line,55.849584583193064,-4.253926081582904,rutherglen,united kingdom
first glasgow - larkfield depot,bus station,55.84936641774892,-4.251686255411255,,united kingdom
gorbals library and real learning centre,college library,55.84913213596455,-4.250807762145996,glasgow,united kingdom
gorbals post office,post office,55.84975851136464,-4.2496490478515625,gorbals,united kingdom
gorbals convienence store,convenience store,55.849344,-4.250258,glasgow,united kingdom
smelly boys flat,home private,55.84617638569836,-4.241774407702005,,united kingdom
gorbals recycles - bicycle worksop,,55.8490866981447,-4.24409151077271,glasgow,united kingdom
tatees place,home private,55.84617638569836,-4.241774407702005,,united kingdom
,vineyard,55.8495086,-4.2419356,,united kingdom
glasgow green play centre,playground,55.849309730054564,-4.233834737345418,,united kingdom
verde building,building,55.84951667892348,-4.233063931229353,glasgow,united kingdom
fortress of solitude - glasgow branch,home private,55.84668212005396,-4.227071951219966,,united kingdom
arcadia street,road,55.849729425843464,-4.23174893558841,glasgow,united kingdom
arcadia home,home private,55.84668212005396,-4.227071951219966,glasgow,united kingdom
kathryns,home private,55.84668212005396,-4.227071951219966,glasgow,united kingdom
7 silvergrove street,home private,55.84668212005396,-4.227071951219966,,united kingdom
lambhill quadrant,coworking space,55.850567990962844,-4.285306467755672,,united kingdom
scotland street west,road,55.85010783172225,-4.283809661865234,glasgow,united kingdom
wlr associates,office,55.850124,-4.283822,,united kingdom
the climbing academy,gym  fitness center,55.85037878261889,-4.281585765057297,glasgow,united kingdom
shields road subway station,subway,55.84980669366959,-4.2757415771484375,glasgow,united kingdom
the fish people cafe,seafood restaurant,55.849858,-4.275091,glasgow,united kingdom
the fish people,fish market,55.849828995831515,-4.27519277674188,glasgow,united kingdom
subway,sandwich place,55.84992,-4.27538,glasgow,united kingdom
spt shield rd park  ride,parking,55.849881722566124,-4.274837507006787,glasgow,united kingdom
work,coworking space,55.850468,-4.268553,glasgow,united kingdom
m74 junction 1,road,55.85062757541743,-4.267707373926591,,united kingdom
pikes palace of ginger love,home private,55.845159328887426,-4.2711876793321,,united kingdom
the local,pub,55.8506220938502,-4.262209767870407,,united kingdom
club noir,other nightlife,55.849899388005234,-4.260288232275398,glasgow,united kingdom
paul and colins gaff,home private,55.845668788985996,-4.256479651168762,east kilbride,united kingdom
o2 academy,music venue,55.850595670415835,-4.25945520401001,glasgow,united kingdom
keyline,building,55.850662,-4.25942085,,united kingdom
cathys hoose,residential building apartment  condo,55.850619398136004,-4.253159978339765,,united kingdom
city sprint glasgow,building,55.85048869,-4.25162394,,united kingdom
st lukes halls of residence,college residence hall,55.85025237715874,-4.250507354736328,glasgow,united kingdom
glasgow club gorbals,gym,55.85025237715874,-4.246644973754883,glasgow,united kingdom
templeton court,residential building apartment  condo,55.8501814046937,-4.234129236775104,,united kingdom
sportscotland,office,55.850669816666674,-4.2337,glasgow,united kingdom
dance hq,dance studio,55.850333579266724,-4.233186116811063,glasgow,united kingdom
templeton business centre,office,55.850646726384426,-4.232321941693689,,united kingdom
postable limited,office,55.8502547768252,-4.232709103106257,,united kingdom
white studios templeton building,,55.85062170893729,-4.233195928061713,,united kingdom
forsyth glazing,shop  service,55.85049147291628,-4.231642252540948,glasgow,united kingdom
bathtube,home private,55.84668212005396,-4.227071951219966,,united kingdom
london road cafe,caf,55.85026161,-4.23156707,,united kingdom
weavers coffee house,coffee shop,55.850120466770704,-4.2311525132827175,glasgow,united kingdom
silky,laundry service,55.85018084057263,-4.230187591581825,,united kingdom
bus stop 60901492,bus line,55.85004900731692,-4.229990584431946,,united kingdom
anson st bus stop,bus line,55.849822,-4.228687,,united kingdom
sandy  sandys hoose of death,home private,55.85573300301182,-4.287687078216173,glasgow,united kingdom
dreghorn photography,photography lab,55.851092566296536,-4.283155623365528,glasgow,united kingdom
wonder world,general entertainment,55.850851495601425,-4.282615154410998,glasgow,united kingdom
the climbing academy,rock climbing spot,55.85155559086538,-4.281549289918703,,united kingdom
sae college,,55.851001,-4.281528,glasgow,united kingdom
sense scotland,non-profit,55.851343,-4.277611,,united kingdom
litecraft,furniture  home store,55.851424476488475,-4.277053380911684,glasgow,united kingdom
cotterells lighting centre,,55.851505,-4.267815,,united kingdom
brasserie at downstairs,mediterranean restaurant,55.85089457017501,-4.263929186737045,,united kingdom
doogies,,55.85108201997482,-4.264458056561233,,united kingdom
pollok golf club,golf course,55.851162150619366,-4.262960912853254,glasgow,united kingdom
sas workwear,mens store,55.85153326666667,-4.2629287,glasgow,united kingdom
criminal justice social work,office,55.85123432170328,-4.260718976353478,glasgow,united kingdom
bridge court,,55.851301373069326,-4.259499606050101,glasgow,united kingdom
deals yaar,restaurant,55.85086066664574,-4.259626865386963,glasgow,united kingdom
curry king,asian restaurant,55.851578,-4.258665,glasgow,united kingdom
citizens theatre,theater,55.850768635088556,-4.253396482179593,glasgow,united kingdom
bus stop 60902510,bus line,55.851009368896484,-4.253247261047363,,united kingdom
bus stop at citizens,bus line,55.851117,-4.254087,glasgow,united kingdom
sharkeys,bar,55.851379,-4.252295,,united kingdom
copfs,government building,55.85121617640157,-4.2519556090461075,glasgow,united kingdom
that place frankie told a funny joke,historic site,55.851364,-4.251547,glasgow,united kingdom
blackfriars primary school,trade school,55.851417,-4.25113,,united kingdom
premier inn,hotel,55.8508185082755,-4.249842166900635,glasgow,united kingdom
premier inn city south bar  bisto,gastropub,55.85093740495708,-4.249921676556452,glasgow,united kingdom
benny bar ,hotel bar,55.850862,-4.249813,glasgow,united kingdom
wards house,home private,55.857262422384466,-4.243544717739007,,united kingdom
city of glasgow college - florence st.,college academic building,55.85137258606393,-4.246655702590942,glasgow,united kingdom
adelphi centre,convention center,55.85074623667722,-4.244091510772705,glasgow,united kingdom
nelsons monument on glasgow green,monument  landmark,55.85149303671178,-4.24072265625,glasgow,united kingdom
peoples palace,history museum,55.85127315304659,-4.237347032403617,glasgow,united kingdom
winter garden at the peoples palace,garden,55.85135826853885,-4.23735398067763,,united kingdom
west brewery bar  restaurant,brewery,55.85092089280965,-4.233952760696411,glasgow,united kingdom
philip lang cycles,bike shop,55.85090228,-4.23410712,glasgow,united kingdom
glasgow london road  green street no 60901490,bus station,55.851381468414104,-4.2332710080496865,glasgow,united kingdom
touchbase business centre,building,55.85175802682296,-4.283294677734375,glasgow,united kingdom
the stanley bar,bar,55.852394,-4.279349,glasgow,united kingdom
cotton print factory shop,hobby shop,55.851901,-4.279141,,united kingdom
quayside,pub,55.85238670519452,-4.277403719234217,glasgow,united kingdom
kingston bridge trading estate,miscellaneous shop,55.85209778293739,-4.2762231712319085,glasgow,united kingdom
martin aitken,office,55.852102200000004,-4.2770604500000005,glasgow,united kingdom
la group,other nightlife,55.852468,-4.276147,,united kingdom
la bartenders,cocktail bar,55.852290570787474,-4.276094635070053,glasgow,united kingdom
edmundson electric,factory,55.85223226,-4.273873748610007,glasgow,united kingdom
the pretty palace,home private,55.85624467479787,-4.272970174204185,,united kingdom
audi garage,automotive shop,55.851916,-4.269854,,united kingdom
lime light,caf,55.85225594718726,-4.264696658577736,,united kingdom
limelight shisha,smoke shop,55.85233577280545,-4.265063421688745,glasgow,united kingdom
osama bin laden cave,campground,55.852278,-4.262332,,united kingdom
osama bin laden cave,campground,55.852278,-4.262332,,united kingdom
mount cook cafe,caf,55.852359771728516,-4.262872219085693,,united kingdom
dubia grill,restaurant,55.85179924964743,-4.26168,glasgow,united kingdom
the old hairdressers,bar,55.851732838022635,-4.2599971976075315,,united kingdom
fantoosh,hookah bar,55.85215159333456,-4.26044155859859,,united kingdom
inntro,bar,55.8517875,-4.2608826,glasgow,united kingdom
bridge street subway station,subway,55.852044093664794,-4.258816838264465,glasgow,united kingdom
train 2 blackpool,train,55.852344,-4.259891,,united kingdom
bus stop 60902618,bus line,55.85230276983476,-4.259099058805877,glasgow,united kingdom
capital cars,taxi,55.85228,-4.25687,,united kingdom
city building skills academy,,55.85181614083392,-4.256191601551571,glasgow,united kingdom
casa kelly,home private,55.85675448091222,-4.258256053280727,glasgow,united kingdom
route 66 glasgow to east kilbride,bus line,55.852397,-4.252303,,united kingdom
glasgow central mosque,mosque,55.85197483556996,-4.251408576965332,glasgow,united kingdom
victoria bar,dive bar,55.85170943975564,-4.249767094378889,glasgow,united kingdom
al dente,italian restaurant,55.85241846437713,-4.250392610999332,,united kingdom
halls of residence,college residence hall,55.852096,-4.249857,glasgow,united kingdom
city of glasgow college - riverside,college academic building,55.851913107380305,-4.248806403380799,glasgow,united kingdom
glasgow life adelphi,coworking space,55.851594409779075,-4.2471395482286285,glasgow,united kingdom
the flat,home private,55.857262422384466,-4.243544717739007,glasgow,united kingdom
clyde arc,bridge,55.851929667180734,-4.244032502174377,glasgow,united kingdom
bank of scotland,bank,55.85206100117364,-4.244508359830725,glasgow,united kingdom
moffat st care home,home private,55.857262422384466,-4.243544717739007,,united kingdom
the world bagpipe championships,music venue,55.8524,-4.2416,glasgow,united kingdom
glasgow green,park,55.85195074576892,-4.2411088943481445,glasgow,united kingdom
great scottish run finish,event space,55.851796184246275,-4.239714916957457,,united kingdom
the doulton fountain,sculpture garden,55.851625531993214,-4.236280918121338,glasgow,united kingdom
inspire studios,general entertainment,55.851591528136176,-4.23617332970175,,united kingdom
glasgow bike shed,bike shop,55.852108,-4.235927,,united kingdom
the calton bar,bar,55.85177,-4.2342,glasgow,united kingdom
pauls,home private,55.85776850024469,-4.228836169869985,,united kingdom
mcgills 38,moving target,55.852801,-4.285104,,united kingdom
casa del cam and kev,home private,55.85573300301182,-4.287687078216173,glasgow,united kingdom
home sweet home,home private,55.85573300301182,-4.287687078216173,,united kingdom
casa del cam  shadow,home private,55.85573300301182,-4.287687078216173,glasgow,united kingdom
casa del cam  shadow,home private,55.85573300301182,-4.287687078216173,glasgow,united kingdom
city gym,gym,55.853053729345504,-4.283455412983544,glasgow,united kingdom
firstglasgow no 56,bus line,55.852905143005316,-4.284249928016876,glasgow,united kingdom
ka faraq gatris home,home private,55.85573300301182,-4.287687078216173,glasgow,united kingdom
portman motors,automotive shop,55.85291290283203,-4.282087326049805,,united kingdom
panda hut,chinese restaurant,55.85332384059617,-4.281213283538818,glasgow,united kingdom
mr clutch glasgow,automotive shop,55.852634,-4.281671,glasgow,united kingdom
aquatron,sporting goods shop,55.85271656513214,-4.280258417129517,glasgow,united kingdom
arran surgery,medical center,55.85294243282677,-4.279891630442759,glasgow,united kingdom
ailsa surgery,medical center,55.852501,-4.278691,glasgow,united kingdom
morplan,miscellaneous shop,55.85265536628003,-4.278616905212402,glasgow,united kingdom
coral reef,pet store,55.85291078931813,-4.278251018978826,,united kingdom
kabana,indian restaurant,55.85291136010797,-4.277262363908682,glasgow,united kingdom
flowerscene,flower shop,55.852499625569756,-4.277284270596326,glasgow,united kingdom
dulux decorator centre,hardware store,55.853204,-4.275543,,united kingdom
toolstation,hardware store,55.8531949025329,-4.275680127305523,,united kingdom
city electric factors,factory,55.853185188496965,-4.275972548840093,,united kingdom
edmunsons,,55.8530891,-4.2740087,,united kingdom
hirestation,,55.85331,-4.274273,,united kingdom
screwfix direct,hardware store,55.85309499482744,-4.273810386657715,glasgow,united kingdom
electricfix,miscellaneous shop,55.853101,-4.27303,glasgow,united kingdom
travelodge,hotel,55.85295045996337,-4.272415637969971,glasgow,united kingdom
travelodge glasgow paisley road,hotel,55.852614,-4.272028,,united kingdom
aileymill primary school,school,55.85288619995117,-4.272228240966797,,united kingdom
all saints primary school,school,55.85288619995117,-4.272228240966797,,united kingdom
my amazeballs home,home private,55.85624467479787,-4.272970174204185,glasgow,united kingdom
422.tv post production,building,55.85319737336425,-4.26892876625061,,united kingdom
clarence house  the prism,residential building apartment  condo,55.853002,-4.269048,,united kingdom
the co-op building,building,55.85311541941129,-4.268952245977265,glasgow,united kingdom
the co-operative funeralcare,funeral home,55.853376,-4.268807,,united kingdom
house of sher,,55.853386,-4.268796,,united kingdom
wallace street,road,55.852721611995825,-4.2675018310546875,glasgow,united kingdom
the kingston quay courtyard,garden,55.853055,-4.267303,,united kingdom
house of lads,residential building apartment  condo,55.853009437948124,-4.267868630682236,,united kingdom
nearox hq,gay bar,55.85277863611981,-4.267044269516593,glasgow,united kingdom
the house that jack built,home private,55.85624467479787,-4.272970174204185,glasgow,united kingdom
western saab,gas station  garage,55.852728,-4.26579,glasgow,united kingdom
kingston quay,home private,55.85624467479787,-4.272970174204185,glasgow,united kingdom
wood and ewing,home private,55.85624467479787,-4.272970174204185,glasgow,united kingdom
strands,salon  barbershop,55.85283668505925,-4.265844531791,,united kingdom
homes,brewery,55.853145599365234,-4.26689338684082,,united kingdom
the health suite,gym  fitness center,55.853131,-4.266762,glasgow,united kingdom
beer garden,beer garden,55.8528238677497,-4.265900263342669,,united kingdom
wyrm interactive studios ltd,arcade,55.852577209472656,-4.265804767608643,,united kingdom
kfc,fried chicken joint,55.85283668505925,-4.265844531791,,united kingdom
rickys  alexs flat,home private,55.85624467479787,-4.272970174204185,glasgow,united kingdom
m  s glasgow,donut shop,55.85283419579905,-4.265916369114942,,united kingdom
220 wallace street,home private,55.85624467479787,-4.272970174204185,glasgow,united kingdom
andy  kelvans flat...,home private,55.85624467479787,-4.272970174204185,glasgow,united kingdom
subway,salad place,55.85284869214801,-4.265969262775889,,united kingdom
zoes dungeon,home private,55.85624467479787,-4.272970174204185,glasgow,united kingdom
flatnet,home private,55.85624467479787,-4.272970174204185,,united kingdom
the manor,,55.853129,-4.266763,,united kingdom
tradeston,other great outdoors,55.85328770714334,-4.264798164367676,tradeston,united kingdom
cafe kase,indian restaurant,55.853338,-4.264509,,united kingdom
karahi palace,indian restaurant,55.85300940919855,-4.261328702192041,tradeston,united kingdom
the castle barfishermans bar,,55.85269,-4.260409,glasgow,united kingdom
the laurieston bar,bar,55.85324077968586,-4.259042416117828,glasgow,united kingdom
budget car hire,rental car location,55.8530661979785,-4.259373129165573,,united kingdom
kervan palace,turkish restaurant,55.853172302246094,-4.2589921951293945,,united kingdom
lord nelson,bar,55.85333529702235,-4.259582014212405,glasgow,united kingdom
glasgow orthodontics,,55.852996519659676,-4.259499194517649,,united kingdom
area 51,,55.85258383352209,-4.25962804794931,glasgow,united kingdom
the waterfront,bar,55.8533474273382,-4.258871758959645,,united kingdom
fuschia,salon  barbershop,55.85263,-4.25891,glasgow,united kingdom
cincinnati club,nightclub,55.852761,-4.25889,glasgow,united kingdom
tmnm office,,55.853325,-4.258813,glasgow,united kingdom
bridge street subway,subway,55.85271,-4.25786,,united kingdom
habib bank uk,bank,55.852955,-4.258543,glasgow,united kingdom
arc studios,music venue,55.853228,-4.258648,glasgow,united kingdom
avenu cafe,caf,55.852745856778405,-4.258563373096428,glasgow,united kingdom
the lunch box,,55.852576,-4.258334,glasgow,united kingdom
deaf connections,,55.852558,-4.256672,glasgow,united kingdom
make it glasgow,caf,55.852935,-4.25274,merchant city,united kingdom
glasgow islamic centre,mosque,55.853102554167975,-4.251276505497186,glasgow,united kingdom
albert bridge,bridge,55.85265416181143,-4.247331619262695,glasgow,united kingdom
glasgow world highland games,athletics  sports,55.8527,-4.2433,glasgow,united kingdom
world pipe band championships,music venue,55.852753,-4.241162,,united kingdom
sacrilege  glasgow green,art gallery,55.852884666758094,-4.240577924299882,,united kingdom
neon gecko,pet store,55.85327396,-4.24087441,,united kingdom
gowrie care,,55.853124260902405,-4.23747181892395,glasgow,united kingdom
desirable designer gear,clothing store,55.85324475661492,-4.236530800035639,,united kingdom
myhome,home private,55.857262422384466,-4.243544717739007,,united kingdom
thenew housing association,office,55.852731,-4.232353,glasgow,united kingdom
emerald isle,pub,55.853188584105034,-4.2310419205527205,glasgow,united kingdom
duke wynd,residential building apartment  condo,55.85269,-4.22997,,united kingdom
yellow bird cafe,fish  chips shop,55.853456329635776,-4.280848503112793,glasgow,united kingdom
rutland crescent,road,55.854034458340784,-4.2814600467681885,glasgow,united kingdom
euro asia,convenience store,55.85366657489587,-4.279684057630472,glasgow,united kingdom
buchannans,grocery store,55.853706,-4.279803,glasgow,united kingdom
gilbride pharmacy,drugstore  pharmacy,55.85360236816745,-4.2804595828056335,glasgow,united kingdom
tasty bite,indian restaurant,55.853714634357935,-4.2791968088010215,glasgow,united kingdom
la fiorentina,italian restaurant,55.85376948375199,-4.279147982597351,glasgow,united kingdom
paisley road toll,other great outdoors,55.85376948375199,-4.279046058654785,glasgow,united kingdom
grand ole opry,other nightlife,55.85385379404441,-4.278531074523926,glasgow,united kingdom
istanbul,turkish restaurant,55.853844,-4.279355,glasgow,united kingdom
the old toll bar,bar,55.853538513183594,-4.278981685638428,,united kingdom
q-wok,chinese restaurant,55.853749,-4.279235,glasgow,united kingdom
old toll cafe,caf,55.8536376953125,-4.279401779174805,,united kingdom
tesco express,grocery store,55.85361290700933,-4.277855157852173,glasgow,united kingdom
kinning park,neighborhood,55.853661084535794,-4.278273582458496,kinning park,united kingdom
merchants quay,bar,55.853729,-4.278435,glasgow,united kingdom
mr india,indian restaurant,55.853702,-4.277687,,united kingdom
the angel bar,bar,55.853666,-4.278321,glasgow,united kingdom
gills off sales,liquor store,55.85368604,-4.27823105,glasgow,united kingdom
re-elect nicola sturgeon campaign hq,,55.853633,-4.27803,glasgow,united kingdom
ibis budget,hotel,55.85392408803002,-4.275758781705742,,united kingdom
ben  jerrys odeon glasgow quay,ice cream shop,55.85369721764146,-4.275805950164795,glasgow,united kingdom
etap hotel,hotel,55.854047,-4.275433,glasgow,united kingdom
ebis budget hotel,hotel,55.8542725269856,-4.27470651734312,,united kingdom
hilti center glasgow,hardware store,55.853532798305444,-4.2746444524242415,glasgow,united kingdom
crocket the ironmonger,hardware store,55.85367202758789,-4.27362060546875,falkirk,united kingdom
harry ramsdens,fast food restaurant,55.85356472942313,-4.272093772888184,glasgow,united kingdom
firstglasgow no 9,bus line,55.85399938,-4.27224186,,united kingdom
number 9 bus to paisley,moving target,55.853871,-4.270656,,united kingdom
glow carwash,car wash,55.854070591099266,-4.2713212966918945,glasgow,united kingdom
casa de la dave  jimjams,home private,55.85624467479787,-4.272970174204185,glasgow,united kingdom
co-op building,home private,55.85624467479787,-4.272970174204185,glasgow,united kingdom
dougans den,home private,55.85624467479787,-4.272970174204185,,united kingdom
sandys,home private,55.85624467479787,-4.272970174204185,glasgow,united kingdom
95 morrison street,home private,55.85624467479787,-4.272970174204185,,united kingdom
fortress of solitude,home private,55.85624467479787,-4.272970174204185,,united kingdom
my flat,home private,55.85624467479787,-4.272970174204185,glasgow,united kingdom
the bone palace,residential building apartment  condo,55.853646,-4.269022,glasgow,united kingdom
53 morrison street,home private,55.85624467479787,-4.272970174204185,glasgow,united kingdom
the flat,home private,55.85624467479787,-4.272970174204185,glasgow,united kingdom
mirch masala and grill,indian restaurant,55.85377825045755,-4.266082487057471,glasgow,united kingdom
taxi,,55.85392930092564,-4.266530800581632,,united kingdom
siobhan fabi  adams flat,home private,55.85624467479787,-4.272970174204185,glasgow,united kingdom
lexus glasgow,automotive shop,55.853498,-4.265661,glasgow,united kingdom
bonnypack,miscellaneous shop,55.85369721764146,-4.264776706695557,glasgow,united kingdom
karim fish n chips,fish  chips shop,55.854011618971896,-4.264610077940359,,united kingdom
the village,indian restaurant,55.85339309628686,-4.2641061544418335,,united kingdom
village curry house,,55.85344,-4.264168,glasgow,united kingdom
grain store studios,building,55.853737,-4.263547,,united kingdom
a.b.s wholesale,miscellaneous shop,55.854227,-4.264042,glasgow,united kingdom
river palace banqueting hall,event space,55.85396,-4.262903,glasgow,united kingdom
hamish allan centre,medical center,55.853404,-4.263412,glasgow,united kingdom
glasvegas cafe glasgow,caf,55.85394980211778,-4.262151326521173,,united kingdom
boulevard self drive,automotive shop,55.85404413718546,-4.260172558187541,,united kingdom
priceless computing south,electronics store,55.853456329635776,-4.260077476501465,glasgow,united kingdom
rythm base,music store,55.854193,-4.259882,,united kingdom
firstglasgow no 56,bus line,55.85358,-4.259746,glasgow,united kingdom
nur,middle eastern restaurant,55.85388419492139,-4.258493164220902,glasgow,united kingdom
casa da hay,home private,55.85675448091222,-4.258256053280727,,united kingdom
spar,mall,55.85388,-4.257977,glasgow,united kingdom
the sou western,bar,55.853644,-4.258594,,united kingdom
78 kingarth street,residential building apartment  condo,55.85411356725146,-4.257860292397661,,united kingdom
cumbrae house,office,55.854011,-4.2581,,united kingdom
ruffs home,home private,55.85675448091222,-4.258256053280727,,united kingdom
house of the callum,home private,55.85675448091222,-4.258256053280727,glasgow,united kingdom
oxford court,home private,55.85675448091222,-4.258256053280727,,united kingdom
enterprise rent-a-car,rental car location,55.853659,-4.258016,,united kingdom
nicolas flat,home private,55.85675448091222,-4.258256053280727,glasgow,united kingdom
carlton studios,music venue,55.85394863348088,-4.255381772614009,glasgow,united kingdom
glasgow sheriff court,building,55.85355063502343,-4.254178159061083,,united kingdom
courtroom cafe,caf,55.853479,-4.254305,,united kingdom
glasgow district court,courthouse,55.853487,-4.253075,glasgow,united kingdom
river clyde,river,55.85387788266578,-4.251837730407715,glasgow,united kingdom
joops flat,home private,55.85675448091222,-4.258256053280727,glasgow,united kingdom
victoria bridge,bridge,55.853685173276645,-4.2513227462768555,glasgow,united kingdom
the mortuarty,police station,55.854118,-4.250484277777778,glasgow,united kingdom
high court of justiciary,courthouse,55.854232,-4.247163,,united kingdom
high court,courthouse,55.85421512179722,-4.2469024658203125,glasgow,united kingdom
sorcha dallas,art gallery,55.854216,-4.247083,glasgow,united kingdom
archangel tattoo,tattoo parlor,55.854139,-4.247144,glasgow,united kingdom
the old shipbank vaults,pub,55.85393222208718,-4.245770396675925,glasgow,united kingdom
mclennan arch,monument  landmark,55.85346054,-4.24588841,glasgow,united kingdom
home sweet home,home private,55.857262422384466,-4.243544717739007,,united kingdom
balitobay,,55.85388,-4.24562,,united kingdom
the whistlin kirk,pub,55.854209,-4.245558,glasgow,united kingdom
chez gibson,home private,55.857262422384466,-4.243544717739007,,united kingdom
mumfords gate,park,55.853839,-4.244683,,united kingdom
homes for the future,building,55.85345640877273,-4.243001833507383,glasgow,united kingdom
home,home private,55.857262422384466,-4.243544717739007,,united kingdom
foggy dew,bar,55.854229,-4.238494,,united kingdom
bus stop 60901487,bus line,55.85375694509009,-4.2371105715164346,,united kingdom
stefanos,caf,55.853791,-4.237332,,united kingdom
no.4 blackfriars road,home private,55.857262422384466,-4.243544717739007,glasgow,united kingdom
my home,home private,55.857262422384466,-4.243544717739007,glasgow,united kingdom
grans house,home private,55.85776850024469,-4.228836169869985,,united kingdom
grans,home private,55.85776850024469,-4.228836169869985,glasgow,united kingdom
jens bit,home private,55.85776850024469,-4.228836169869985,glasgow,united kingdom
epilepsy scotland,,55.85432,-4.284215,glasgow,united kingdom
topstaff,office,55.854414,-4.282464,,united kingdom
govan road,road,55.85508229469618,-4.2826080322265625,glasgow,united kingdom
pickwell palace ,home private,55.85573300301182,-4.287687078216173,glasgow,united kingdom
wattysville,home private,55.85573300301182,-4.287687078216173,glasgow,united kingdom
rutland place,road,55.854713,-4.282517,glasgow,united kingdom
the bear cave,home private,55.85573300301182,-4.287687078216173,glasgow,united kingdom
tommys hoose,home private,55.85573300301182,-4.287687078216173,glasgow,united kingdom
rutland surgery,doctors office,55.854432387164586,-4.280378119779554,kinning park,united kingdom
a.s.neills wholesale,professional  other places,55.854433,-4.279583,glasgow,united kingdom
odeon,movie theater,55.854600534363676,-4.27617073059082,glasgow,united kingdom
nandos,portuguese restaurant,55.8551244484411,-4.275763034820557,glasgow,united kingdom
amf bowling,bowling alley,55.85449213746572,-4.275054931640625,glasgow,united kingdom
alea,casino,55.85493776722357,-4.275140762329102,glasgow,united kingdom
ashoka,indian restaurant,55.85504472255707,-4.275765,,united kingdom
papa tonys,italian restaurant,55.8549624182451,-4.275332506135047,,united kingdom
panda,chinese restaurant,55.85507877786603,-4.275898192345114,glasgow,united kingdom
costa coffee,coffee shop,55.855013,-4.275633,glasgow,united kingdom
chiquito,mexican restaurant,55.85507025076066,-4.27443265914917,glasgow,united kingdom
burger king,fast food restaurant,55.8543596519576,-4.273853302001953,glasgow,united kingdom
springfield quay,general entertainment,55.85467279879433,-4.273316860198975,glasgow,united kingdom
springfield quay harvester,gastropub,55.85509554302094,-4.273155927658081,glasgow,united kingdom
mecca bingo glasow quay,general entertainment,55.854570314287756,-4.273017842562527,glasgow,united kingdom
la cherie - house of beautyp,salon  barbershop,55.85516639033687,-4.272749780723188,glasgow,united kingdom
harper memorial baptist church,church,55.85518906942803,-4.273194162632394,,united kingdom
frankie  bennys,american restaurant,55.85493776722357,-4.271664619445801,glasgow,united kingdom
mum n dads,home private,55.85624467479787,-4.272970174204185,glasgow,united kingdom
kieran and jamies manpad,home private,55.85624467479787,-4.272970174204185,glasgow,united kingdom
hameeeee ,home private,55.85675448091222,-4.258256053280727,,united kingdom
rbs cadogan street,office,55.8548623,-4.2649155,glasgow,united kingdom
home,home private,55.85624467479787,-4.272970174204185,glasgow,united kingdom
city mechanics,gas station  garage,55.854393983366734,-4.261463035789676,glasgow,united kingdom
remnant kings,furniture  home store,55.854730876557795,-4.260405521505934,,united kingdom
car care centre,automotive shop,55.85495116476723,-4.260426594532478,glasgow,united kingdom
crossfit glasgow,gym,55.854398006058766,-4.2598493304783345,glasgow,united kingdom
babylon cafe,restaurant,55.8547886282249,-4.258892863652794,glasgow,united kingdom
little-persia persian  oriental rugs,furniture  home store,55.85452826979864,-4.2597126960754395,glasgow,united kingdom
spice garden,indian restaurant,55.85492045469029,-4.259566770094973,,united kingdom
babylon supermarket,grocery store,55.85449892171224,-4.259850974862017,,united kingdom
yokoso,japanese restaurant,55.854324,-4.259474,,united kingdom
rhythm base,music store,55.85448779187466,-4.259817752584356,,united kingdom
love-rugs,furniture  home store,55.85456440209796,-4.259755611419678,glasgow,united kingdom
carlton place,road,55.85495547893961,-4.257705335451143,,united kingdom
my nest,home private,55.85675448091222,-4.258256053280727,glasgow,united kingdom
the auctioneer,bar,55.854801177978516,-4.25670862197876,,united kingdom
auto city,car dealership,55.85467428676308,-4.256943902751272,,united kingdom
kirsty and jennas flat,home private,55.85675448091222,-4.258256053280727,glasgow,united kingdom
1530 bus to edinburgh,,55.854549,-4.25708,glasgow,united kingdom
south portland st suspension bridge,bridge,55.854973899142124,-4.255635738372803,glasgow,united kingdom
the prince  princess of wales hospice,office,55.85437711191122,-4.25559454941968,glasgow,united kingdom
29 cadogan street glasgow,building,55.854646,-4.2546439,,united kingdom
epic boating flat,home private,55.85675448091222,-4.258256053280727,glasgow,united kingdom
the brazen head,sports bar,55.855148816860385,-4.2518074814762965,,united kingdom
windsorflat,home private,55.85675448091222,-4.258256053280727,,united kingdom
westering winds,bar,55.8543192,-4.2511688,,united kingdom
metropole lane,road,55.855190689947854,-4.251151084899902,glasgow,united kingdom
holiday inn express,hotel,55.85488959127993,-4.250550270080566,glasgow,united kingdom
clutha bar,bar,55.854426,-4.25017,glasgow,united kingdom
6 bus,moving target,55.855016,-4.250147,,united kingdom
the briggait,building,55.854499,-4.249811,glasgow,united kingdom
present people,gift shop,55.854939056087886,-4.250225828312574,,united kingdom
shutter bug,design studio,55.8551115,-4.249814433333333,,united kingdom
first bus - 21,bus line,55.85496930373913,-4.250295668624379,glasgow,united kingdom
spirit aid,,55.8551,-4.250104,glasgow,united kingdom
carrick court,home private,55.857262422384466,-4.243544717739007,glasgow,united kingdom
the city merchant 217 sauchiehall,,55.854951,-4.249876,,united kingdom
dear green coffee roasters,factory,55.85482937126635,-4.2494988441467285,glasgow,united kingdom
~ gym,gym,55.85505108017844,-4.249183993306692,,united kingdom
the gala gate,bar,55.8546694,-4.2483638,,united kingdom
beauty kitchen,spa  massage,55.854763,-4.247412,,united kingdom
sham gate,butcher,55.85502714789399,-4.248197134437632,glasgow,united kingdom
euro car parks,parking,55.854527,-4.24686,glasgow,united kingdom
angies party flat,home private,55.857262422384466,-4.243544717739007,,united kingdom
st margarets place,road,55.854678,-4.246654,glasgow,united kingdom
mart street,road,55.854462,-4.247022,glasgow,united kingdom
billy bilsland cycles,bike shop,55.8544228,-4.2458988,glasgow,united kingdom
saltmarket,,55.85496425628662,-4.245566725730896,glasgow,united kingdom
rock and roll tattoo,building,55.854620163238614,-4.245112219997332,,united kingdom
scullion criminal defence office,financial or legal service,55.85493169107657,-4.245075337829537,glasgow,united kingdom
sams hairdressers,salon  barbershop,55.85452,-4.245794,glasgow,united kingdom
java the hut,coffee shop,55.85508229469618,-4.245593547821045,glasgow,united kingdom
glsgw hm,home private,55.857262422384466,-4.243544717739007,,united kingdom
ladbrokes,sporting goods shop,55.85512470367583,-4.2442791030483376,glasgow,united kingdom
turnbull street,road,55.854793239213414,-4.2440056800842285,glasgow,united kingdom
cafe source,restaurant,55.85494378921234,-4.243297576904297,glasgow,united kingdom
st andrews square,plaza,55.85469688690801,-4.242589473724365,glasgow,united kingdom
saint andrews square,home private,55.857262422384466,-4.243544717739007,glasgow,united kingdom
st andrews in the square,event space,55.85493776722357,-4.242610931396484,glasgow,united kingdom
dr nics pad,home private,55.857262422384466,-4.243544717739007,,united kingdom
the fallen angels club at st. andrews in the square,,55.8545952,-4.2434269,glasgow uk,united kingdom
bernards gaff,home private,55.857262422384466,-4.243544717739007,,united kingdom
the spirit,bar,55.854794,-4.241867,glasgow,united kingdom
charlotte st 52,residential building apartment  condo,55.8544675630296,-4.2403795314861785,glasgow,united kingdom
caf mimis,caf,55.85458849027882,-4.239499568939209,glasgow,united kingdom
glickmans confectionery,candy store,55.85463967761362,-4.239759743213654,glasgow,united kingdom
international mobile phone centre,,55.854467,-4.239688,glasgow,united kingdom
lynchs,bar,55.854642391204834,-4.238657355308533,glasgow,united kingdom
newcastle academy,,55.8550898,-4.2379496,newcastle,united kingdom
the barras market,flea market,55.854972938132924,-4.237579065970495,glasgow,united kingdom
barras art and design baad,general entertainment,55.854582468235016,-4.237182140350342,glasgow,united kingdom
the barras art centre,art gallery,55.854555219996904,-4.237043040863597,,united kingdom
22 23 gibson street,home private,55.857262422384466,-4.243544717739007,,united kingdom
rose  grants,caf,55.854774,-4.236607,glasgow,united kingdom
bills tool store,hardware store,55.854522,-4.235644,,united kingdom
the pipe factory,art gallery,55.854691,-4.235728,,united kingdom
8 bain street g40 2 al,home private,55.85776850024469,-4.228836169869985,,united kingdom
bain street,road,55.85499798706916,-4.235100746154785,glasgow,united kingdom
g1 5dn,home private,55.85776850024469,-4.228836169869985,glasgow,united kingdom
the princess suite,roof deck,55.85538864135742,-4.282544136047363,,united kingdom
harper memorial baptist church,church,55.85520553588867,-4.282132148742676,,united kingdom
mavisbank gardens,residential building apartment  condo,55.85522682163123,-4.279603958129883,glasgow,united kingdom
martins,home private,55.85624467479787,-4.272970174204185,,united kingdom
m8 kingston bridge,bridge,55.855740752375816,-4.270118760943595,glasgow,united kingdom
glasgow city free church,church,55.855996049851306,-4.2701737759740395,glasgow,united kingdom
riverview drive,residential building apartment  condo,55.855201,-4.26875,,united kingdom
tradeston-broomielaw bridge squiggly,bridge,55.856081928331,-4.263725280761719,glasgow,united kingdom
peek a view,miscellaneous shop,55.8557988,-4.2627071,,united kingdom
glasgow river bus,boat or ferry,55.85594560986075,-4.2601800143826285,glasgow,united kingdom
george v bridge,bridge,55.85573266167069,-4.259777069091797,glasgow,united kingdom
glasgow bridge,bridge,55.85538098310277,-4.257802963256836,glasgow,united kingdom
vantage building,residential building apartment  condo,55.855848,-4.257747133333333,glasgow,united kingdom
poundland,miscellaneous shop,55.855472564697266,-4.255707740783691,glasgow,united kingdom
st enoch worling,mall,55.85599272833418,-4.256122225125994,glasgow,united kingdom
urban central studios,general entertainment,55.855898,-4.256049,glasgow,united kingdom
charlie browns,breakfast spot,55.85522,-4.256253,glasgow,united kingdom
rainbow room academy,salon  barbershop,55.855833855868525,-4.255049405914987,,united kingdom
club v,gay bar,55.855744,-4.254909,glasgow,united kingdom
custom house quay gardens,trail,55.855597810699365,-4.255264408635115,,united kingdom
forbidden lapdancing club,strip club,55.855832749295395,-4.25418183288797,glasgow,united kingdom
clem and sebs,home private,55.85675448091222,-4.258256053280727,,united kingdom
saint andrews cathedral,church,55.855419929566175,-4.25341545850321,glasgow,united kingdom
clyde street,road,55.85528704102885,-4.253425598144531,glasgow,united kingdom
riverview apartments,residential building apartment  condo,55.855696530457685,-4.253833293914795,glasgow,united kingdom
q-park st. enoch,parking,55.85596149190621,-4.253361225128174,glasgow,united kingdom
reilly cassidy  co,,55.855559,-4.253629,glasgow,united kingdom
la grotte du leprechaun florian,moving target,55.85585,-4.25355,,united kingdom
riverview apartments,residential building apartment  condo,55.855719,-4.253477,,united kingdom
languagelab.com glasgow hq,college administrative building,55.855628967285156,-4.2539143562316895,,united kingdom
riverview apartments,residential building apartment  condo,55.855577,-4.253405,,united kingdom
maxwell house,home private,55.85675448091222,-4.258256053280727,,united kingdom
sheriff court,courthouse,55.855324469609464,-4.252769031171866,glasgow,united kingdom
cathedral cloister garden,garden,55.85528704102885,-4.252803325653076,glasgow,united kingdom
minster hairdressers,salon  barbershop,55.855843,-4.252389,glasgow,united kingdom
clyde view city apartment glasgow,home private,55.85675448091222,-4.258256053280727,glasgow,united kingdom
alfie heights,,55.855462,-4.251907,,united kingdom
concept group ltd,office,55.855600180392074,-4.251169860363007,glasgow,united kingdom
slaters,mens store,55.85570454597473,-4.25128,glasgow,united kingdom
pipeworks | gay sauna,spa  massage,55.855232843575195,-4.251274466514587,glasgow,united kingdom
annie millers,bar,55.855365326106245,-4.251505136489868,glasgow,united kingdom
i2i optometrists,optical shop,55.855575,-4.251572,glasgow,united kingdom
smurfs home,home private,55.85675448091222,-4.258256053280727,,united kingdom
howard street,road,55.855600180392074,-4.25121009349823,glasgow,united kingdom
metropole building,home private,55.85675448091222,-4.258256053280727,glasgow,united kingdom
angelique lamont,bridal shop,55.85565437733337,-4.250979423522949,glasgow,united kingdom
ropeworks lane,road,55.85531112876177,-4.251580238342285,glasgow,united kingdom
scotia bar,bar,55.855407479544105,-4.250292778015137,glasgow,united kingdom
scrimshaws,cosmetics shop,55.855304,-4.250109,,united kingdom
the laundrette,water park,55.85542,-4.250471,,united kingdom
power house,sporting goods shop,55.855531,-4.250128,,united kingdom
stockwell st.,road,55.85604579744276,-4.249842166900635,glasgow,united kingdom
byrnsies pad,home private,55.857262422384466,-4.243544717739007,glasgow,united kingdom
bernard corrigan,fish market,55.855485764378834,-4.250475168228149,glasgow,united kingdom
king st carpark,parking,55.855570070947564,-4.248533248901367,glasgow,united kingdom
court yard bar,bar,55.856025,-4.249517,glasgow,united kingdom
powerhouse fitness,gym,55.855648,-4.248767,,united kingdom
toms crib,home private,55.857262422384466,-4.243544717739007,,united kingdom
alis barber,salon  barbershop,55.85596203804016,-4.248608350753784,glasgow,united kingdom
south block,event space,55.85594413094065,-4.247757648417928,,united kingdom
mcleods,music store,55.855479,-4.247672,glasgow,united kingdom
jar hair salon,salon  barbershop,55.855915,-4.247626,glasgow,united kingdom
mono,caf,55.85566039921106,-4.246408939361572,glasgow,united kingdom
the 13th note,bar,55.85595547007519,-4.246832728385925,glasgow,united kingdom
once upon a tart,caf,55.856093971952966,-4.246569871902466,glasgow,united kingdom
cyber,boutique,55.85570687924866,-4.24690360665642,glasgow,united kingdom
monorail music,record shop,55.855600180392074,-4.246280193328857,glasgow,united kingdom
madebrave,office,55.855985579221056,-4.246913194656372,glasgow,united kingdom
all that is coffee,coffee shop,55.855847092055804,-4.247112419215576,,united kingdom
strung out,music store,55.85540472577873,-4.246826417311294,,united kingdom
newspaper club,tech startup,55.856024,-4.246913,glasgow,united kingdom
kings court arcade,mall,55.85532367229462,-4.246940016746521,glasgow,united kingdom
bowers  peacock,salon  barbershop,55.85590699860823,-4.246625043683446,glasgow,united kingdom
mr. ben retro clothing,clothing store,55.85561506332954,-4.246676451258272,glasgow,united kingdom
transmission,art gallery,55.855813,-4.246845,glasgow,united kingdom
ludometrics,office,55.85593740457646,-4.2462158203125,glasgow,united kingdom
teeshirtnation,clothing store,55.85549178628268,-4.246537685394287,glasgow,united kingdom
papertank,design studio,55.855961491906235,-4.247159957885742,glasgow,united kingdom
the modern institute,art gallery,55.855934,-4.245366,,united kingdom
static collective,art gallery,55.855716705322266,-4.244939804077148,glasgow,united kingdom
de anderen,design studio,55.855894,-4.245049,glasgow,united kingdom
saltmarket,road,55.85553996147973,-4.24497127532959,,united kingdom
studio ileache,dance studio,55.855865,-4.245787,glasgow,united kingdom
thomas hayes pet and aquarium corner,pet store,55.856034,-4.244931,glasgow,united kingdom
stewarts cafe,caf,55.85542297363281,-4.243819713592529,,united kingdom
gilt edged,boutique,55.85553164567974,-4.2448823291473055,glasgow,united kingdom
new beginnings,,55.855604136687916,-4.243933744556126,glasgow,united kingdom
ballito bay-coffee with a touch of glass,art gallery,55.85539543570937,-4.2443060874938965,glasgow,united kingdom
the fish plaice,seafood restaurant,55.855792,-4.244724,glasgow,united kingdom
carot tops cafe,caf,55.855474,-4.244081,,united kingdom
odaat centre,event space,55.85541077637215,-4.24396751732927,,united kingdom
mellow dee bar,bar,55.85554615214454,-4.243989400387337,,united kingdom
healthy feet,spa  massage,55.855914,-4.244819,glasgow,united kingdom
the studio,event space,55.855553,-4.244134,glasgow,united kingdom
contagious glasgow,office,55.855621,-4.242635,glasgow,united kingdom
embody massage,gym  fitness center,55.85603251711171,-4.243142445396457,,united kingdom
east bier bar,bar,55.85604486118908,-4.24294220755292,glasggow,united kingdom
high street pharmacy,drugstore  pharmacy,55.85570539041835,-4.24363182715703,,united kingdom
andys flat,home private,55.857262422384466,-4.243544717739007,glasgow,united kingdom
goodd,design studio,55.855621,-4.242635,glasgow,united kingdom
hot tanning salon,tanning salon,55.85534137494996,-4.24155887576462,glasgow,united kingdom
coronation resturant,food,55.8557376011291,-4.242539275197308,glasgow,united kingdom
casa de ewan e drew,home private,55.857262422384466,-4.243544717739007,,united kingdom
the cornation cafe in town,,55.855545,-4.242101,glasgow,united kingdom
untouchable,furniture  home store,55.85604490834481,-4.240672715428888,glasgow,united kingdom
city car club vehicle,rental car location,55.855498320180494,-4.240479061314837,glasgow,united kingdom
louailis,home private,55.857262422384466,-4.243544717739007,glasgow,united kingdom
the penthouse,hotel,55.85601050528913,-4.240711912041629,glasgow,united kingdom
glasgow oldest chippie,fish  chips shop,55.855815,-4.239479,,united kingdom
charlotte street,residential building apartment  condo,55.85529327392578,-4.240150451660156,,united kingdom
the saracens head,bar,55.85574470540087,-4.238544702529907,glasgow,united kingdom
polski supermarket,food  drink shop,55.85574470540087,-4.2381370067596436,glasgow,united kingdom
hot,tanning salon,55.85582,-4.23824,,united kingdom
piekarnia cukiernia,bakery,55.855252,-4.238094,,united kingdom
tracys snacks,breakfast spot,55.855636311694674,-4.238018989562988,glasgow,united kingdom
187 gallowgate glasgow g1  5dy,,55.855696530457685,-4.2381370067596436,,united kingdom
reeta fashions,bridal shop,55.85574470540087,-4.23898458480835,glasgow,united kingdom
bus 60,moving target,55.85570128294733,-4.2373796279494025,,united kingdom
kevin hunter art studio,art gallery,55.855985579221056,-4.2371392250061035,glasgow,united kingdom
gallowgate,pub,55.85564911438831,-4.237838508605181,glasgow,united kingdom
chopan kebab,american restaurant,55.855586528778076,-4.237804412841797,glasgow,united kingdom
bairds bar,pub,55.855484339576904,-4.23724463273926,glasgow,united kingdom
cafe lavita,snack place,55.85559275573769,-4.237894507801589,glasgow,united kingdom
tim land,home private,55.857262422384466,-4.243544717739007,,united kingdom
barrowland ballroom,music venue,55.855407479544105,-4.236752986907959,cowcaddens,united kingdom
bar 67,bar,55.85549968634325,-4.2363737147754,glasgow,united kingdom
philips garage,professional  other places,55.85587305591246,-4.236076204476573,glasgow,united kingdom
glasgow pram centre,shop  service,55.85600677262575,-4.236048341709149,glasgow,united kingdom
cabin bar,bar,55.855959,-4.236723,glasgow,united kingdom
glasgow nails,nail salon,55.85534217966876,-4.234965831901193,,united kingdom
tir na nog,bar,55.85558813661706,-4.234821796417236,glasgow,united kingdom
the hoops bar,bar,55.855373,-4.23501,,united kingdom
pout,salon  barbershop,55.855433444949895,-4.235247934724768,,united kingdom
the hielan jessie,bar,55.855825,-4.233429,glasgow,united kingdom
gallowgate bus stop no 60901476,bus line,55.85580250216232,-4.2336965589353,glasgow,united kingdom
ladywell business centre,convention center,55.855623988812,-4.232556160457531,glasgow,united kingdom
the squirrel,bar,55.855560984818375,-4.232647208333717,,united kingdom
calton fire station,building,55.8556045569197,-4.232528580212243,,united kingdom
chalmers street,home private,55.85776850024469,-4.228836169869985,,united kingdom
gallowgate,neighborhood,55.855947915197376,-4.2289240649601005,glasgow,united kingdom
gallowgategraham square 60901473,bus line,55.855822,-4.229064,glasgow,united kingdom
millroad drive,home private,55.85776850024469,-4.228836169869985,,united kingdom
bus stop 60901473,bus station,55.85587,-4.228916,,united kingdom
daniels flat,home private,55.85776850024469,-4.228836169869985,,united kingdom
mums,home private,55.85776850024469,-4.228836169869985,glasgow,united kingdom
stv glasgow hq,office,55.85664797452723,-4.284968376159668,glasgow,united kingdom
south rotunda,,55.85650345287809,-4.284968376159668,,united kingdom
the stronghold,home private,55.85573300301182,-4.287687078216173,,united kingdom
finnieston quay,scenic lookout,55.85675392349642,-4.283613170343447,,united kingdom
everything smells like dead hookers,scenic lookout,55.85634231567383,-4.283586025238037,,united kingdom
the monghold,assisted living,55.8562911409786,-4.283928792475863,,united kingdom
res,office,55.856559,-4.284224,,united kingdom
mcgills 23 bus,bus line,55.85629144639546,-4.284133321789998,glasgow,united kingdom
shintars flat,home private,55.85573300301182,-4.287687078216173,glasgow,united kingdom
kierans place,home private,55.85624467479787,-4.272970174204185,,united kingdom
xaliors place,home private,55.85624467479787,-4.272970174204185,glasgow,united kingdom
marks flat,home private,55.85624467479787,-4.272970174204185,,united kingdom
ferry glasgow,,55.85648380267079,-4.272275254243475,glasgow,united kingdom
toolstation,hardware store,55.856985,-4.2714997,glasgow,united kingdom
club rory,residential building apartment  condo,55.856446,-4.271198,glasgow,united kingdom
the ferry on the clyde,boat or ferry,55.85632,-4.268572,,united kingdom
the ferry,nightclub,55.856298125183095,-4.268684273664927,,united kingdom
atkins,office,55.8566597462023,-4.265877993226635,glasgow,united kingdom
ace european group,,55.85678617728685,-4.266066942404245,glasgow,united kingdom
faithful+gould,office,55.856676,-4.265547,glasgow,united kingdom
broomielaw,road,55.856864755993094,-4.264411926269531,glasgow,united kingdom
renfrew ferry,bar,55.85643410682678,-4.263948,glasgow,united kingdom
bt,office,55.856937016212925,-4.2633819580078125,glasgow,united kingdom
clyde riverbus,boat or ferry,55.856346887151545,-4.262577295303345,glasgow,united kingdom
clyde walkway,plaza,55.85638301775982,-4.261407852172852,glasgow,united kingdom
mott macdonald,office,55.85693303294942,-4.261881964242906,glasgow,united kingdom
axa insurance,office,55.856825,-4.261992,glasgow,united kingdom
clydeport,government building,55.85655227881949,-4.260560562298568,glasgow,united kingdom
octopussy,nightclub,55.856708595163795,-4.2610768688262235,glasgow,united kingdom
grosvenor casino glasgow riverboat,casino,55.85622798303894,-4.259785012586153,glasgow,united kingdom
java joes,caf,55.856522,-4.259689,,united kingdom
broomiellaw,neighborhood,55.85630210210923,-4.259262462973683,,united kingdom
javajoes,coffee shop,55.8563583430297,-4.259613517822491,glasgow,united kingdom
joannas crib,home private,55.85675448091222,-4.258256053280727,glasgow,united kingdom
the crystal fury,,55.856711,-4.258986,glasgow,united kingdom
queens house,home private,55.85675448091222,-4.258256053280727,glasgow,united kingdom
broomielaw quay ferry terminal,pier,55.85632977084474,-4.257866525753731,,united kingdom
number 57 bus,bus line,55.85667294993172,-4.257735546951092,glasgow,united kingdom
under central bridge,,55.856816,-4.258207,,united kingdom
1625 train to stranraer,train,55.856245,-4.258639,,united kingdom
jurys inn glasgow,hotel,55.85662388762303,-4.257373809814453,glasgow,united kingdom
euro hostel glasgow,hostel,55.85645527887558,-4.257330894470215,glasgow,united kingdom
mint  lime,bar,55.85666579772479,-4.257448160510342,glasgow,united kingdom
room 1011,assisted living,55.8567143723334,-4.257133562869686,,united kingdom
the grill bar,bbq joint,55.856464213006994,-4.257439076025462,,united kingdom
restaurant jurys inn,eastern european restaurant,55.856651,-4.256972,,united kingdom
the imperial,pub,55.856310013592534,-4.257336037481816,glasgow,united kingdom
,,55.8565998007039,-4.256644248962402,,united kingdom
costa coffee jurys inn,caf,55.856668,-4.257206,,united kingdom
kennys music,music store,55.856956427420656,-4.257374615391536,,united kingdom
bus stop 609037,bus station,55.856904229999756,-4.257368242441724,glasgow,united kingdom
flat 8 308 clyde st.,home private,55.85675448091222,-4.258256053280727,,united kingdom
clydeunion pumps glasgow,factory,55.85667563055744,-4.257466865802338,,united kingdom
the dutchess palace,home private,55.85675448091222,-4.258256053280727,,united kingdom
rubadub,music venue,55.856733749614975,-4.256403435471888,,united kingdom
kendall koppe,art gallery,55.856109637500005,-4.25615995,glasgow,united kingdom
vivace theatre school,,55.856119914887614,-4.255647620048138,glasgow,united kingdom
blue lagoon,fish  chips shop,55.85676307936212,-4.255418254951977,glasgow,united kingdom
mary mary gallery,art gallery,55.85618432790921,-4.255668175397196,glasgow,united kingdom
blackrock productions,strip club,55.85668043,-4.25565177,glasgow,united kingdom
tesco metro,grocery store,55.8569008861198,-4.255185127258301,glasgow,united kingdom
boots,drugstore  pharmacy,55.856909918646224,-4.254477024078369,glasgow,united kingdom
st enoch hotel,bed  breakfast,55.85689093238434,-4.255031701372103,,united kingdom
mcdonalds,fast food restaurant,55.856949059569835,-4.254412651062012,glasgow,united kingdom
wongs chinese kitchen,chinese restaurant,55.85697,-4.254198,glasgow,united kingdom
thorntons,dessert shop,55.85696944291577,-4.254607495705429,glasgow,united kingdom
kfc,fried chicken joint,55.85696110292301,-4.2542195320129395,glasgow,united kingdom
drewdle,arts  crafts store,55.856838,-4.254259,,united kingdom
rollover,american restaurant,55.856652,-4.254227,,united kingdom
the sugar house,home private,55.85675448091222,-4.258256053280727,glasgow,united kingdom
bus stop 60903541,bus station,55.856834411621094,-4.254761219024658,,united kingdom
eats 1,fast food restaurant,55.856842041015625,-4.2548017501831055,glasgow,united kingdom
st. enoch barbers,salon  barbershop,55.85690151069575,-4.255184294853561,glasgow,united kingdom
modelfix,arts  crafts store,55.856935,-4.254265,,united kingdom
st. enoch shopping centre,mall,55.856864755993094,-4.253683090209961,glasgow,united kingdom
disney store,toy  game store,55.85684066922327,-4.253339767456055,glasgow,united kingdom
game,video game store,55.85680453904055,-4.253275394439697,glasgow,united kingdom
aulds st enoch,caf,55.85680281231479,-4.253683301585056,glasgow,united kingdom
modelzone,hobby shop,55.85684066922327,-4.253854751586914,glasgow,united kingdom
di maggios,food court,55.85693636072498,-4.253975344239029,glasgow,united kingdom
benefit brow bar,spa  massage,55.85686573949322,-4.253856691361669,glasgow,united kingdom
mamas rasoi,indian restaurant,55.85645352263533,-4.253183944191542,glasgow,united kingdom
dorothy perkins,womens store,55.856997232960154,-4.2534685134887695,glasgow,united kingdom
buchanans,karaoke bar,55.856688,-4.254006,,united kingdom
trespass,sporting goods shop,55.85681658243853,-4.253640174865723,glasgow,united kingdom
mco,clothing store,55.85699724192942,-4.253516583499553,glasgow,united kingdom
the body shop,cosmetics shop,55.85680453904055,-4.253790378570557,glasgow,united kingdom
st enoch tesco metro,home private,55.85675448091222,-4.258256053280727,glasgow,united kingdom
optical express,optical shop,55.85681354488743,-4.253949459567992,st enoch square,united kingdom
madhouse,clothing store,55.85692509999999,-4.253514733333334,,united kingdom
little vips,kids store,55.856946,-4.253002,glasgow,united kingdom
kottage kafe,breakfast spot,55.856761,-4.253997,glasgow,united kingdom
15 eriskay avenue,home private,55.85675448091222,-4.258256053280727,port glasgow,united kingdom
obriens,caf,55.85671453658373,-4.252680106785501,,united kingdom
clinton cards,gift shop,55.85655162682085,-4.252728223800659,glasgow,united kingdom
vision express opticians,miscellaneous shop,55.85670355206907,-4.252248854896444,glasgow,united kingdom
bradfords bakery atm,cupcake shop,55.85660582243511,-4.25218105316162,glasgow,united kingdom
bakery atm,dessert shop,55.856775165670115,-4.252224202218277,,united kingdom
barratts,shoe store,55.85680389404297,-4.252631664276123,glasgow,united kingdom
blue inc,clothing store,55.856683,-4.252374,glasgow,united kingdom
danesi caffe,caf,55.85694885253906,-4.252956390380859,,united kingdom
calendar club,gift shop,55.8567237854004,-4.25220775604248,glasgow,united kingdom
menkind glasgow st enoch,gift shop,55.856888842747956,-4.2526960372924805,glasgow,united kingdom
regis st enochs,salon  barbershop,55.856727,-4.252268,,united kingdom
bhs,department store,55.85643119185192,-4.2511725425720215,glasgow,united kingdom
bus stop 60903539,bus line,55.85624694824219,-4.251195907592773,,united kingdom
blame,bar,55.85671067543306,-4.251412128036924,,united kingdom
bargain books,,55.85669382165095,-4.250954387647207,glasgow,united kingdom
argos,department store,55.8565998007039,-4.249767065048218,glasgow,united kingdom
stockwell street,bus line,55.85612873612569,-4.24991553744862,,united kingdom
millers art shop,arts  crafts store,55.856888842747956,-4.249670505523682,glasgow,united kingdom
bus stop 609063,bus line,55.856165719201066,-4.250125065528588,,united kingdom
tivoli restaurant,caf,55.856706,-4.249643,glasgow,united kingdom
john barras,gastropub,55.8568000793457,-4.250404357910156,,united kingdom
granite house,office,55.8568149805069,-4.249901175498962,glasgow,united kingdom
empire bar,bar,55.85694585933833,-4.249802942141648,glasgow,united kingdom
glasgow music studios,music store,55.85661986232669,-4.249521422582807,glasgow,united kingdom
the oriental bar,,55.856296,-4.249721,glasgow,united kingdom
panache bridal wear  kilts,bridal shop,55.85656367029723,-4.249563217163086,glasgow,united kingdom
bonmarch,,55.85698,-4.249735,glasgow,united kingdom
cultural enterprise office,office,55.85649597254722,-4.249117049689163,,united kingdom
the lobby,caf,55.85660134760038,-4.249025082275287,,united kingdom
osbourne street bus stop 60904006,bus line,55.85634770250372,-4.248681649986125,,united kingdom
bus stop 60904006,bus line,55.856496508805854,-4.248943793061589,,united kingdom
coronation restaurant,food truck,55.85613250732422,-4.24889612197876,,united kingdom
gha,military base,55.8568115234375,-4.249367713928223,,united kingdom
cafe cossachok,caf,55.856898,-4.24636,glasgow,united kingdom
trongate 103,art gallery,55.85699689056139,-4.246449445043283,glasgow,united kingdom
avant garde,gastropub,55.856327045805045,-4.246625298376788,glasgow,united kingdom
mo hair,salon  barbershop,55.8562384503616,-4.24661656041631,glasgow,united kingdom
static games,toy  game store,55.85650345287809,-4.246644973754883,glasgow,united kingdom
val doro,diner,55.85686845582846,-4.246367057223256,glasgow,united kingdom
good press gallery,art gallery,55.8567636,-4.2464274,glasgow uk,united kingdom
the city vintage clothing,boutique,55.856114,-4.246746,,united kingdom
street level photoworks,art gallery,55.85657556444339,-4.246652468304614,glasgow,united kingdom
screenmedia,office,55.85642416356754,-4.2469388263509416,glasgow,united kingdom
glasgow print studio,art gallery,55.856759376264904,-4.246661067008972,glasgow,united kingdom
terrys tattoo studio,tattoo parlor,55.856453534775476,-4.246560738978018,glasgow,united kingdom
tatty bon,boutique,55.856434,-4.246048,,united kingdom
graphical house,office,55.856157,-4.246629,glasgow,united kingdom
techmeetup glasgow,electronics store,55.856943,-4.246208,,united kingdom
good creative,design studio,55.85622588942661,-4.2466904624614905,glasgow,united kingdom
ricefield chinese arts and cultural centre,professional  other places,55.856691,-4.246756,,united kingdom
greens barbers,salon  barbershop,55.856915,-4.246304,glasgow,united kingdom
the dragon and george,hobby shop,55.8564019203186,-4.246065616607666,glasgow,united kingdom
maggie mays,pub,55.85697157284232,-4.245160700523957,glasgow,united kingdom
trans europe cafe,caf,55.856557,-4.245334,glasgow,united kingdom
tron theatre,theater,55.85676840882425,-4.245014190673828,glasgow,united kingdom
tron theatre bar,bar,55.85655162682085,-4.245400428771973,glasgow,united kingdom
nirvana body piercing,tattoo parlor,55.856789,-4.2453302,,united kingdom
esca restaurant,italian restaurant,55.856448,-4.2453138,glasgow,united kingdom
guitarguitar,music store,55.856888842747956,-4.2452287673950195,glasgow,united kingdom
plan b books,,55.856593438724495,-4.245993062983124,,united kingdom
a1 comics,miscellaneous shop,55.85649938,-4.2454737,glasgow,united kingdom
e2 cafe,caf,55.856332,-4.245449,,united kingdom
parnie street dental practice,dentists office,55.856432,-4.24546,glasgow,united kingdom
the glasgow piercing studio,building,55.856288025000005,-4.245155850000001,glasgow,united kingdom
terrys tattoos,event space,55.856534,-4.245258,glasgow,united kingdom
glasgrow,miscellaneous shop,55.856447,-4.245376,glasgow,united kingdom
trongate,other great outdoors,55.856553032496585,-4.245343072770383,,united kingdom
tolbooth,pub,55.856418434481924,-4.243953658381529,glasgow,united kingdom
jack morton worldwide - glasgow office,office,55.856846,-4.244085,glasgow,united kingdom
rose and grants,caf,55.85692683979052,-4.244485192922469,glasgow,united kingdom
envious bridal,bridal shop,55.85683802204559,-4.244176532562005,,united kingdom
glasgay,general entertainment,55.856676,-4.244522,glasgow,united kingdom
merchant city cameras,miscellaneous shop,55.85645144324897,-4.243779887160975,,united kingdom
the hemp house,flower shop,55.856254,-4.244792,glasgow,united kingdom
creation studios,music venue,55.85667206141649,-4.24396276473999,glasgow,united kingdom
mercat building,,55.856889,-4.244261,glasgow city,united kingdom
glasgow cross,other great outdoors,55.85598059402048,-4.242158367233028,glasgow,united kingdom
tolbooth clock tower,monument  landmark,55.85664797452723,-4.24372673034668,glasgow,united kingdom
hepcat tattoos,tattoo parlor,55.856884,-4.243319,glasgow,united kingdom
guitarguitar digital,music store,55.85673227857434,-4.242889881134033,glasgow,united kingdom
the drum hq,office,55.856532000116275,-4.243220791319632,glasgow,united kingdom
chicken cottage,fried chicken joint,55.85680953577049,-4.243490931858262,glasgow,united kingdom
chez dunne,bagel shop,55.85661409229193,-4.24321786351591,,united kingdom
the merchant building,home private,55.857262422384466,-4.243544717739007,glasgow,united kingdom
half hobbit flat,home private,55.857262422384466,-4.243544717739007,,united kingdom
tot spot,kids store,55.856289668167484,-4.243104076609713,glasgow,united kingdom
bus stop 6090103,bus line,55.856573,-4.243497,,united kingdom
chrystal bell bar,bar,55.856480775,-4.242788,glasgow,united kingdom
reynolds hair and beauty,salon  barbershop,55.856457,-4.243363,glasgow,united kingdom
charles anderson messenger at arms,office,55.8566,-4.243083,,united kingdom
dave and lynzs,home private,55.857262422384466,-4.243544717739007,,united kingdom
mckinnons,bar,55.85640613593945,-4.242725477071646,,united kingdom
flat 22,home private,55.857262422384466,-4.243544717739007,glasgow,united kingdom
the italian job,italian restaurant,55.856300354003906,-4.242776870727539,,united kingdom
glasgow life,event space,55.85700352610223,-4.24315190259788,glasgow,united kingdom
tolbooth steeple,scenic lookout,55.85655340611754,-4.242743564753277,glasgow,united kingdom
casa del honni,home private,55.857262422384466,-4.243544717739007,,united kingdom
carnyx,office,55.85643854,-4.243512569999999,glasgow,united kingdom
the food stop,,55.856912475,-4.243403,glasgow,united kingdom
cafe prima,,55.856532,-4.243695,glasgow,united kingdom
untouchables,furniture  home store,55.856258,-4.242764,,united kingdom
rock n roll tattoo,art gallery,55.856815,-4.242158,,united kingdom
sile sanda,tattoo parlor,55.8565124854969,-4.24247682094574,glasgow,united kingdom
lidl,grocery store,55.856394692162645,-4.242109798424615,glasgow,united kingdom
bell street,home private,55.857262422384466,-4.243544717739007,,united kingdom
duncans flat,home private,55.857262422384466,-4.243544717739007,glasgow,united kingdom
g1 5ae,residential building apartment  condo,55.856200267123256,-4.239229382576919,,united kingdom
my flat,home private,55.857262422384466,-4.243544717739007,glasgow,united kingdom
bell st,residential building apartment  condo,55.856728,-4.23789,glasgow,united kingdom
james den of anarchy,residential building apartment  condo,55.856400688463296,-4.237351816945835,glasgow,united kingdom
ruraidhs,residential building apartment  condo,55.85640432227744,-4.237720677306899,glasgow,united kingdom
wise group,building,55.856204986572266,-4.237842559814453,,united kingdom
casa al-tannak,home private,55.857262422384466,-4.243544717739007,glasgow,united kingdom
college heights,residential building apartment  condo,55.856657,-4.237762,glasgow,united kingdom
brionys flat  x,home private,55.85776850024469,-4.228836169869985,glasgow,united kingdom
morrisons,grocery store,55.85630819462476,-4.233146516269898,barrack street,united kingdom
moore street,home private,55.85776850024469,-4.228836169869985,glasgow,united kingdom
the flat,home private,55.85776850024469,-4.228836169869985,glasgow,united kingdom
squinty bridge,bridge,55.85703336296369,-4.282994270324707,glasgow,united kingdom